[{"id": 114, "stationName": "Wroc\u0142aw, ul. Bartnicza", "gegrLat": "51.115933", "gegrLon": "17.141125", "city": {"id": 1064, "name": "Wroc\u0142aw", "commune": {"communeName": "Wroc\u0142aw", "districtName": "Wroc\u0142aw", "provinceName": "DOLNO\u015aL\u0104SKIE"}}, "addressStreet": "ul. Bartnicza"}, {"id": 117, "stationName": "Wroc\u0142aw, wyb. Conrada-Korzeniowskiego", "gegrLat": "51.129378", "gegrLon": "17.029250", "city": {"id": 1064, "name": "Wroc\u0142aw", "commune": {"communeName": "Wroc\u0142aw", "districtName": "Wroc\u0142aw", "provinceName": "DOLNO\u015aL\u0104SKIE"}}, "addressStreet": "ul. Wyb. J.Conrada-Korzeniowskiego 18"}, {"id": 129, "stationName": "Wroc\u0142aw, al. Wi\u015bniowa", "gegrLat": "51.086225", "gegrLon": "17.012689", "city": {"id": 1064, "name": "Wroc\u0142aw", "commune": {"communeName": "Wroc\u0142aw", "districtName": "Wroc\u0142aw", "provinceName": "DOLNO\u015aL\u0104SKIE"}}, "addressStreet": "al. Wi\u015bniowa/ul. Powst. \u015al\u0105skich"}, {"id": 52, "stationName": "Legnica, al. Rzeczypospolitej", "gegrLat": "51.204503", "gegrLon": "16.180513", "city": {"id": 453, "name": "Legnica", "commune": {"communeName": "Legnica", "districtName": "Legnica", "provinceName": "DOLNO\u015aL\u0104SKIE"}}, "addressStreet": "al. Rzeczypospolitej 10/12"}, {"id": 109, "stationName": "Wa\u0142brzych, ul. Wysockiego", "gegrLat": "50.768729", "gegrLon": "16.269677", "city": {"id": 998, "name": "Wa\u0142brzych", "commune": {"communeName": "Wa\u0142brzych", "districtName": "Wa\u0142brzych", "provinceName": "DOLNO\u015aL\u0104SKIE"}}, "addressStreet": "ul. Wysockiego 11"}, {"id": 11, "stationName": "Czerniawa", "gegrLat": "50.912475", "gegrLon": "15.312190", "city": {"id": 142, "name": "Czerniawa", "commune": {"communeName": "\u015awierad\u00f3w-Zdr\u00f3j", "districtName": "luba\u0144ski", "provinceName": "DOLNO\u015aL\u0104SKIE"}}, "addressStreet": "ul. Stra\u017cacka 7"}, {"id": 16, "stationName": "Dzier\u017coni\u00f3w, ul. Pi\u0142sudskiego", "gegrLat": "50.732817", "gegrLon": "16.648050", "city": {"id": 198, "name": "Dzier\u017coni\u00f3w", "commune": {"communeName": "Dzier\u017coni\u00f3w", "districtName": "dzier\u017coniowski", "provinceName": "DOLNO\u015aL\u0104SKIE"}}, "addressStreet": "ul. Pi\u0142sudskiego 26"}, {"id": 38, "stationName": "K\u0142odzko, ul. Szkolna", "gegrLat": "50.433493", "gegrLon": "16.653660", "city": {"id": 368, "name": "K\u0142odzko", "commune": {"communeName": "K\u0142odzko", "districtName": "k\u0142odzki", "provinceName": "DOLNO\u015aL\u0104SKIE"}}, "addressStreet": "ul. Szkolna 8"}, {"id": 70, "stationName": "O\u0142awa, ul. \u017bo\u0142nierzy Armii Krajowej", "gegrLat": "50.942073", "gegrLon": "17.291333", "city": {"id": 642, "name": "O\u0142awa", "commune": {"communeName": "O\u0142awa", "districtName": "o\u0142awski", "provinceName": "DOLNO\u015aL\u0104SKIE"}}, "addressStreet": "ul. \u017bo\u0142nierzy AK 9"}, {"id": 74, "stationName": "Osiecz\u00f3w", "gegrLat": "51.317630", "gegrLon": "15.431719", "city": {"id": 648, "name": "Osiecz\u00f3w", "commune": {"communeName": "Osiecznica", "districtName": "boles\u0142awiecki", "provinceName": "DOLNO\u015aL\u0104SKIE"}}, "addressStreet": "bez ulicy"}, {"id": 84, "stationName": "\u015anie\u017cka", "gegrLat": "50.736389", "gegrLon": "15.739722", "city": {"id": 346, "name": "Karpacz", "commune": {"communeName": "Karpacz", "districtName": "karkonoski", "provinceName": "DOLNO\u015aL\u0104SKIE"}}, "addressStreet": "\u015anie\u017cka"}, {"id": 134, "stationName": "Zgorzelec, ul. Bohater\u00f3w Getta", "gegrLat": "51.150391", "gegrLon": "15.008175", "city": {"id": 1101, "name": "Zgorzelec", "commune": {"communeName": "Zgorzelec", "districtName": "zgorzelecki", "provinceName": "DOLNO\u015aL\u0104SKIE"}}, "addressStreet": "ul. Bohater\u00f3w Getta 1a"}, {"id": 9153, "stationName": "Jelenia G\u00f3ra, ul. Ogi\u0144skiego", "gegrLat": "50.913433", "gegrLon": "15.765608", "city": {"id": 319, "name": "Jelenia G\u00f3ra", "commune": {"communeName": "Jelenia G\u00f3ra", "districtName": "Jelenia G\u00f3ra", "provinceName": "DOLNO\u015aL\u0104SKIE"}}, "addressStreet": "ul. Ogi\u0144skiego 6"}, {"id": 11254, "stationName": "Nowa Ruda, ul. Jeziorna", "gegrLat": "50.581492", "gegrLon": "16.498245", "city": {"id": 602, "name": "Nowa Ruda", "commune": {"communeName": "Nowa Ruda", "districtName": "k\u0142odzki", "provinceName": "DOLNO\u015aL\u0104SKIE"}}, "addressStreet": "ul. Jeziorna 19"}, {"id": 11934, "stationName": "Trzebnica, ul. 3 Maja", "gegrLat": "51.304817", "gegrLon": "17.071367", "city": {"id": 975, "name": "Trzebnica", "commune": {"communeName": "Trzebnica", "districtName": "trzebnicki", "provinceName": "DOLNO\u015aL\u0104SKIE"}}, "addressStreet": "ul. 3 Maja"}, {"id": 12054, "stationName": "Lw\u00f3wek \u015al\u0105ski, al. Wojska Polskiego", "gegrLat": "51.113033", "gegrLon": "15.585239", "city": {"id": 497, "name": "Lw\u00f3wek \u015al\u0105ski", "commune": {"communeName": "Lw\u00f3wek \u015al\u0105ski", "districtName": "lw\u00f3wecki", "provinceName": "DOLNO\u015aL\u0104SKIE"}}, "addressStreet": "al. Wojska Polskiego"}, {"id": 12055, "stationName": "Strzegom", "gegrLat": "50.969633", "gegrLon": "16.348469", "city": {"id": 888, "name": "Strzegom", "commune": {"communeName": "Strzegom", "districtName": "\u015bwidnicki", "provinceName": "DOLNO\u015aL\u0104SKIE"}}, "addressStreet": "ul. A. Mickiewicza 2"}, {"id": 17478, "stationName": "Polanica-Zdr\u00f3j al. Zwyci\u0119zc\u00f3w", "gegrLat": "50.398834", "gegrLon": "16.513855", "city": {"id": 717, "name": "Polanica-Zdr\u00f3j", "commune": {"communeName": "Polanica-Zdr\u00f3j", "districtName": "k\u0142odzki", "provinceName": "DOLNO\u015aL\u0104SKIE"}}, "addressStreet": "al. Zwyci\u0119zc\u00f3w"}, {"id": 156, "stationName": "Bydgoszcz, pl. Pozna\u0144ski", "gegrLat": "53.121764", "gegrLon": "17.987906", "city": {"id": 90, "name": "Bydgoszcz", "commune": {"communeName": "Bydgoszcz", "districtName": "Bydgoszcz", "provinceName": "KUJAWSKO-POMORSKIE"}}, "addressStreet": "Plac Pozna\u0144ski"}, {"id": 158, "stationName": "Bydgoszcz, ul. Warszawska", "gegrLat": "53.134083", "gegrLon": "17.995708", "city": {"id": 90, "name": "Bydgoszcz", "commune": {"communeName": "Bydgoszcz", "districtName": "Bydgoszcz", "provinceName": "KUJAWSKO-POMORSKIE"}}, "addressStreet": "ul. Warszawska 10"}, {"id": 16216, "stationName": "Mi\u0119dzyrzecz ul. Komisji Edukacji Narodowej", "gegrLat": "52.443327", "gegrLon": "15.564809", "city": {"id": 556, "name": "Mi\u0119dzyrzecz", "commune": {"communeName": "Mi\u0119dzyrzecz", "districtName": "mi\u0119dzyrzecki", "provinceName": "LUBUSKIE"}}, "addressStreet": "ul. Komisji Edukacji Narodowej 1"}, {"id": 16613, "stationName": "Nowa S\u00f3l", "gegrLat": "51.809103", "gegrLon": "15.708042", "city": {"id": 605, "name": "Nowa S\u00f3l", "commune": {"communeName": "Nowa S\u00f3l", "districtName": "nowosolski", "provinceName": "LUBUSKIE"}}, "addressStreet": "T. Ko\u015bciuszki"}, {"id": 295, "stationName": "\u0141\u00f3d\u017a, ul. Czernika", "gegrLat": "51.758050", "gegrLon": "19.529786", "city": {"id": 516, "name": "\u0141\u00f3d\u017a", "commune": {"communeName": "\u0141\u00f3d\u017a", "districtName": "\u0141\u00f3d\u017a", "provinceName": "\u0141\u00d3DZKIE"}}, "addressStreet": "ul. Czernika 1/3"}, {"id": 296, "stationName": "\u0141\u00f3d\u017a, ul. Gda\u0144ska", "gegrLat": "51.775378", "gegrLon": "19.450992", "city": {"id": 516, "name": "\u0141\u00f3d\u017a", "commune": {"communeName": "\u0141\u00f3d\u017a", "districtName": "\u0141\u00f3d\u017a", "provinceName": "\u0141\u00d3DZKIE"}}, "addressStreet": "ul. Gda\u0144ska 16"}, {"id": 314, "stationName": "Pabianice, ul. Konstantynowska", "gegrLat": "51.667981", "gegrLon": "19.368683", "city": {"id": 667, "name": "Pabianice", "commune": {"communeName": "Pabianice", "districtName": "pabianicki", "provinceName": "\u0141\u00d3DZKIE"}}, "addressStreet": "ul. Konstantynowska"}, {"id": 355, "stationName": "Zgierz, ul. Mielczarskiego", "gegrLat": "51.856692", "gegrLon": "19.421231", "city": {"id": 1100, "name": "Zgierz", "commune": {"communeName": "Zgierz", "districtName": "zgierski", "provinceName": "\u0141\u00d3DZKIE"}}, "addressStreet": "ul. Mielczarskiego 1"}, {"id": 10058, "stationName": "\u0141\u00f3d\u017a, al. Jana Paw\u0142a II", "gegrLat": "51.754613", "gegrLon": "19.434925", "city": {"id": 516, "name": "\u0141\u00f3d\u017a", "commune": {"communeName": "\u0141\u00f3d\u017a", "districtName": "\u0141\u00f3d\u017a", "provinceName": "\u0141\u00d3DZKIE"}}, "addressStreet": "al. Jana Paw\u0142a II 15"}, {"id": 291, "stationName": "Gajew, Uj\u0119cie Wody", "gegrLat": "52.143258", "gegrLon": "19.233217", "city": {"id": 209, "name": "Gajew", "commune": {"communeName": "Witonia", "districtName": "\u0142\u0119czycki", "provinceName": "\u0141\u00d3DZKIE"}}, "addressStreet": "Uj\u0119cie wody"}, {"id": 319, "stationName": "Parzniewice, Uj\u0119cie Wody", "gegrLat": "51.291175", "gegrLon": "19.517556", "city": {"id": 673, "name": "Parzniewice", "commune": {"communeName": "Wola Krzysztoporska", "districtName": "piotrkowski", "provinceName": "\u0141\u00d3DZKIE"}}, "addressStreet": "Uj\u0119cie wody"}, {"id": 322, "stationName": "Piotrk\u00f3w Trybunalski, ul. Krakowskie Przedmie\u015bcie", "gegrLat": "51.404406", "gegrLon": "19.696956", "city": {"id": 703, "name": "Piotrk\u00f3w Trybunalski", "commune": {"communeName": "Piotrk\u00f3w Trybunalski", "districtName": "Piotrk\u00f3w Trybunalski", "provinceName": "\u0141\u00d3DZKIE"}}, "addressStreet": "ul. Krakowskie Przedmie\u015bcie 13"}, {"id": 331, "stationName": "Radomsko, ul. Rolna", "gegrLat": "51.067417", "gegrLon": "19.448714", "city": {"id": 773, "name": "Radomsko", "commune": {"communeName": "Radomsko", "districtName": "radomszcza\u0144ski", "provinceName": "\u0141\u00d3DZKIE"}}, "addressStreet": "ul. Rolna 2"}, {"id": 562, "stationName": "\u017byrard\u00f3w, ul. Roosevelta", "gegrLat": "52.053811", "gegrLon": "20.429892", "city": {"id": 1130, "name": "\u017byrard\u00f3w", "commune": {"communeName": "\u017byrard\u00f3w", "districtName": "\u017cyrardowski", "provinceName": "MAZOWIECKIE"}}, "addressStreet": "ul. Roosevelta 2"}, {"id": 9913, "stationName": "Guty Du\u017ce", "gegrLat": "52.943172", "gegrLon": "21.288167", "city": {"id": 2181, "name": "Guty Du\u017ce", "commune": {"communeName": "Czerwonka", "districtName": "makowski", "provinceName": "MAZOWIECKIE"}}, "addressStreet": "Guty Du\u017ce 4"}, {"id": 11358, "stationName": "Bia\u0142a, ul. Kmicica", "gegrLat": "52.602534", "gegrLon": "19.645100", "city": {"id": 2661, "name": "Bia\u0142a", "commune": {"communeName": "Stara Bia\u0142a", "districtName": "p\u0142ocki", "provinceName": "MAZOWIECKIE"}}, "addressStreet": "ul. Andrzeja Kmicica 33"}, {"id": 16271, "stationName": "Konstancin-Jeziorna, ul. \u017beromskiego", "gegrLat": "52.082277", "gegrLon": "21.124598", "city": {"id": 395, "name": "Konstancin-Jeziorna", "commune": {"communeName": "Konstancin-Jeziorna", "districtName": "piaseczy\u0144ski", "provinceName": "MAZOWIECKIE"}}, "addressStreet": "\u017beromskiego"}, {"id": 17160, "stationName": "Pu\u0142tusk, ul. Adama Mickiewicza 36", "gegrLat": "52.703591", "gegrLon": "21.072603", "city": {"id": 765, "name": "Pu\u0142tusk", "commune": {"communeName": "Pu\u0142tusk", "districtName": "pu\u0142tuski", "provinceName": "MAZOWIECKIE"}}, "addressStreet": "Mickiewicza"}, {"id": 590, "stationName": "Opole, os. Armii Krajowej", "gegrLat": "50.676856", "gegrLon": "17.950278", "city": {"id": 645, "name": "Opole", "commune": {"communeName": "Opole", "districtName": "Opole", "provinceName": "OPOLSKIE"}}, "addressStreet": "os. Armii Krajowej"}, {"id": 10374, "stationName": "Opole, ul. Koszyka", "gegrLat": "50.666736", "gegrLon": "17.899137", "city": {"id": 645, "name": "Opole", "commune": {"communeName": "Opole", "districtName": "Opole", "provinceName": "OPOLSKIE"}}, "addressStreet": "ul. Koszyka 21"}, {"id": 568, "stationName": "K\u0119dzierzyn-Ko\u017ale, ul. \u015amia\u0142ego", "gegrLat": "50.349608", "gegrLon": "18.236575", "city": {"id": 355, "name": "K\u0119dzierzyn-Ko\u017ale", "commune": {"communeName": "K\u0119dzierzyn-Ko\u017ale", "districtName": "k\u0119dzierzy\u0144sko-kozielski", "provinceName": "OPOLSKIE"}}, "addressStreet": "ul. Boles\u0142awa \u015amia\u0142ego 5"}, {"id": 584, "stationName": "Olesno, ul. S\u0142owackiego", "gegrLat": "50.876983", "gegrLon": "18.416878", "city": {"id": 636, "name": "Olesno", "commune": {"communeName": "Olesno", "districtName": "oleski", "provinceName": "OPOLSKIE"}}, "addressStreet": "ul. S\u0142owackiego"}, {"id": 600, "stationName": "Zdzieszowice, ul. Piast\u00f3w", "gegrLat": "50.423533", "gegrLon": "18.120739", "city": {"id": 1097, "name": "Zdzieszowice", "commune": {"communeName": "Zdzieszowice", "districtName": "krapkowicki", "provinceName": "OPOLSKIE"}}, "addressStreet": "ul. Piast\u00f3w 6"}, {"id": 8976, "stationName": "Nysa, ul. Rodziewicz\u00f3wny", "gegrLat": "50.458989", "gegrLon": "17.331906", "city": {"id": 628, "name": "Nysa", "commune": {"communeName": "Nysa", "districtName": "nyski", "provinceName": "OPOLSKIE"}}, "addressStreet": "ul. Rodziewicz\u00f3wny 1"}, {"id": 10018, "stationName": "G\u0142ubczyce, ul. Ratuszowa", "gegrLat": "50.200778", "gegrLon": "17.83051", "city": {"id": 228, "name": "G\u0142ubczyce", "commune": {"communeName": "G\u0142ubczyce", "districtName": "g\u0142ubczycki", "provinceName": "OPOLSKIE"}}, "addressStreet": "ul. Ratuszowa 9"}, {"id": 16413, "stationName": "Brzeg, ul. Poprzeczna", "gegrLat": "50.849509", "gegrLon": "17.462579", "city": {"id": 75, "name": "Brzeg", "commune": {"communeName": "Brzeg", "districtName": "brzeski", "provinceName": "OPOLSKIE"}}, "addressStreet": "ul. Poprzeczna 1"}, {"id": 16913, "stationName": "Krapkowice, ul. 3 Maja", "gegrLat": "50.486194", "gegrLon": "17.974770", "city": {"id": 416, "name": "Krapkowice", "commune": {"communeName": "Krapkowice", "districtName": "krapkowicki", "provinceName": "OPOLSKIE"}}, "addressStreet": "ul. 3 Maja 17"}, {"id": 671, "stationName": "Rzesz\u00f3w, ul. Rejtana", "gegrLat": "50.024242", "gegrLon": "22.010575", "city": {"id": 810, "name": "Rzesz\u00f3w", "commune": {"communeName": "Rzesz\u00f3w", "districtName": "Rzesz\u00f3w", "provinceName": "PODKARPACKIE"}}, "addressStreet": "Rejtana"}, {"id": 10125, "stationName": "Rzesz\u00f3w, ul. Pi\u0142sudskiego", "gegrLat": "50.040675", "gegrLon": "22.004656", "city": {"id": 810, "name": "Rzesz\u00f3w", "commune": {"communeName": "Rzesz\u00f3w", "districtName": "Rzesz\u00f3w", "provinceName": "PODKARPACKIE"}}, "addressStreet": "Pi\u0142sudskiego"}, {"id": 17159, "stationName": "Rzesz\u00f3w, ul. S\u0142oci\u0144ska", "gegrLat": "50.024856", "gegrLon": "22.047937", "city": {"id": 810, "name": "Rzesz\u00f3w", "commune": {"communeName": "Rzesz\u00f3w", "districtName": "Rzesz\u00f3w", "provinceName": "PODKARPACKIE"}}, "addressStreet": "S\u0142oci\u0144ska 4"}, {"id": 17179, "stationName": "Rzesz\u00f3w, ul. Starzy\u0144skiego", "gegrLat": "50.060381", "gegrLon": "21.980511", "city": {"id": 810, "name": "Rzesz\u00f3w", "commune": {"communeName": "Rzesz\u00f3w", "districtName": "Rzesz\u00f3w", "provinceName": "PODKARPACKIE"}}, "addressStreet": "Starzy\u0144skiego 17"}, {"id": 631, "stationName": "Jaros\u0142aw, ul. Pruchnicka", "gegrLat": "50.012083", "gegrLon": "22.674772", "city": {"id": 303, "name": "Jaros\u0142aw", "commune": {"communeName": "Jaros\u0142aw", "districtName": "jaros\u0142awski", "provinceName": "PODKARPACKIE"}}, "addressStreet": "Pruchnicka"}, {"id": 638, "stationName": "Jaslo, ul. Sikorskiego", "gegrLat": "49.744886", "gegrLon": "21.454617", "city": {"id": 306, "name": "Jas\u0142o", "commune": {"communeName": "Jas\u0142o", "districtName": "jasielski", "provinceName": "PODKARPACKIE"}}, "addressStreet": "Sikorskiego"}, {"id": 646, "stationName": "Krosno, ul. Klet\u00f3wki", "gegrLat": "49.690169", "gegrLon": "21.749700", "city": {"id": 425, "name": "Krosno", "commune": {"communeName": "Krosno", "districtName": "Krosno", "provinceName": "PODKARPACKIE"}}, "addressStreet": "Klet\u00f3wki"}, {"id": 659, "stationName": "Nisko, ul. Szklarniowa", "gegrLat": "50.529892", "gegrLon": "22.112467", "city": {"id": 600, "name": "Nisko", "commune": {"communeName": "Nisko", "districtName": "ni\u017ca\u0144ski", "provinceName": "PODKARPACKIE"}}, "addressStreet": "Szklarniowa"}, {"id": 665, "stationName": "Przemy\u015bl, ul. Grunwaldzka", "gegrLat": "49.784339", "gegrLon": "22.756239", "city": {"id": 748, "name": "Przemy\u015bl", "commune": {"communeName": "Przemy\u015bl", "districtName": "Przemy\u015bl", "provinceName": "PODKARPACKIE"}}, "addressStreet": "Grunwaldzka"}, {"id": 678, "stationName": "Sanok, ul. Sadowa", "gegrLat": "49.571731", "gegrLon": "22.195892", "city": {"id": 814, "name": "Sanok", "commune": {"communeName": "Sanok", "districtName": "sanocki", "provinceName": "PODKARPACKIE"}}, "addressStreet": "Sadowa"}, {"id": 684, "stationName": "Tarnobrzeg, ul. D\u0105browskiej", "gegrLat": "50.575742", "gegrLon": "21.688367", "city": {"id": 954, "name": "Tarnobrzeg", "commune": {"communeName": "Tarnobrzeg", "districtName": "Tarnobrzeg", "provinceName": "PODKARPACKIE"}}, "addressStreet": "Marii D\u0105browskiej"}, {"id": 870, "stationName": " Go\u0142dap, ul. Ja\u0107wieska", "gegrLat": "54.305908", "gegrLon": "22.307681", "city": {"id": 241, "name": "Go\u0142dap", "commune": {"communeName": "Go\u0142dap", "districtName": "go\u0142dapski", "provinceName": "WARMI\u0143SKO-MAZURSKIE"}}, "addressStreet": "ul. Ja\u0107wieska 17"}, {"id": 882, "stationName": "Diabla G\u00f3ra, Puszcza Borecka", "gegrLat": "54.124819", "gegrLon": "22.038056", "city": {"id": 167, "name": "Diabla G\u00f3ra", "commune": {"communeName": "Kruklanki", "districtName": "gi\u017cycki", "provinceName": "WARMI\u0143SKO-MAZURSKIE"}}, "addressStreet": "Diabla G\u00f3ra"}, {"id": 10005, "stationName": "E\u0142k, ul. Pi\u0142sudskiego", "gegrLat": "53.828389", "gegrLon": "22.348338", "city": {"id": 203, "name": "E\u0142k", "commune": {"communeName": "E\u0142k", "districtName": "e\u0142cki", "provinceName": "WARMI\u0143SKO-MAZURSKIE"}}, "addressStreet": "ul. Pi\u0142sudskiego 27"}, {"id": 10030, "stationName": "Ostr\u00f3da, ul. Pi\u0142sudskiego", "gegrLat": "53.694587", "gegrLon": "19.969041", "city": {"id": 657, "name": "Ostr\u00f3da", "commune": {"communeName": "Ostr\u00f3da", "districtName": "ostr\u00f3dzki", "provinceName": "WARMI\u0143SKO-MAZURSKIE"}}, "addressStreet": "Pi\u0142sudskiego 4"}, {"id": 17182, "stationName": "K\u0119trzyn, ul. Wojska Polskiego", "gegrLat": "54.081439", "gegrLon": "21.369823", "city": {"id": 357, "name": "K\u0119trzyn", "commune": {"communeName": "K\u0119trzyn", "districtName": "k\u0119trzy\u0144ski", "provinceName": "WARMI\u0143SKO-MAZURSKIE"}}, "addressStreet": "Wojska Polskiego 9"}, {"id": 944, "stationName": "Pozna\u0144, ul. D\u0105browskiego", "gegrLat": "52.420319", "gegrLon": "16.877289", "city": {"id": 729, "name": "Pozna\u0144", "commune": {"communeName": "Pozna\u0144", "districtName": "Pozna\u0144", "provinceName": "WIELKOPOLSKIE"}}, "addressStreet": "ul. D\u0105browskiego 169"}, {"id": 16493, "stationName": "Pozna\u0144 ul. Szwajcarska", "gegrLat": "52.390879", "gegrLon": "16.998053", "city": {"id": 729, "name": "Pozna\u0144", "commune": {"communeName": "Pozna\u0144", "districtName": "Pozna\u0144", "provinceName": "WIELKOPOLSKIE"}}, "addressStreet": "ul. Szwajcarska"}, {"id": 952, "stationName": "Kalisz, ul. Wyszy\u0144skiego", "gegrLat": "51.747950", "gegrLon": "18.049063", "city": {"id": 336, "name": "Kalisz", "commune": {"communeName": "Kalisz", "districtName": "Kalisz", "provinceName": "WIELKOPOLSKIE"}}, "addressStreet": "ul. Wyszy\u0144skiego"}, {"id": 902, "stationName": "Konin, ul. Wyszy\u0144skiego", "gegrLat": "52.225650", "gegrLon": "18.268927", "city": {"id": 393, "name": "Konin", "commune": {"communeName": "Konin", "districtName": "Konin", "provinceName": "WIELKOPOLSKIE"}}, "addressStreet": "ul. Wyszy\u0144skiego 3"}, {"id": 946, "stationName": "Piaski, Krzy\u017c\u00f3wka", "gegrLat": "52.501318", "gegrLon": "17.773175", "city": {"id": 441, "name": "Krzy\u017c\u00f3wka", "commune": {"communeName": "Witkowo", "districtName": "gnie\u017anie\u0144ski", "provinceName": "WIELKOPOLSKIE"}}, "addressStreet": "Piaski 10"}, {"id": 950, "stationName": "Bor\u00f3wiec, ul. Drapa\u0142ka", "gegrLat": "52.276720", "gegrLon": "17.074187", "city": {"id": 62, "name": "Bor\u00f3wiec", "commune": {"communeName": "K\u00f3rnik", "districtName": "pozna\u0144ski", "provinceName": "WIELKOPOLSKIE"}}, "addressStreet": "ul. Drapa\u0142ka 4"}, {"id": 9218, "stationName": "Pleszew, Al. Mickiewicza", "gegrLat": "51.884922", "gegrLon": "17.791106", "city": {"id": 706, "name": "Pleszew", "commune": {"communeName": "Pleszew", "districtName": "pleszewski", "provinceName": "WIELKOPOLSKIE"}}, "addressStreet": "al. Mickiewicza"}, {"id": 10834, "stationName": "Kozieg\u0142owy, os.Le\u015bne", "gegrLat": "52.449295", "gegrLon": "16.999634", "city": {"id": 2163, "name": "Kozieg\u0142owy", "commune": {"communeName": "Czerwonak", "districtName": "pozna\u0144ski", "provinceName": "WIELKOPOLSKIE"}}, "addressStreet": "osiedle Le\u015bne 22"}, {"id": 16495, "stationName": "Mosina, ul. Czere\u015bniowa", "gegrLat": "52.241497", "gegrLon": "16.865125", "city": {"id": 2712, "name": "Mosina", "commune": {"communeName": "Mosina", "districtName": "pozna\u0144ski", "provinceName": "WIELKOPOLSKIE"}}, "addressStreet": "ul. Czere\u015bniowa 4"}, {"id": 17438, "stationName": "Ko\u015bcian, ul. Maya", "gegrLat": "52.090436", "gegrLon": "16.636381", "city": {"id": 404, "name": "Ko\u015bcian", "commune": {"communeName": "Ko\u015bcian", "districtName": "ko\u015bcia\u0144ski", "provinceName": "WIELKOPOLSKIE"}}, "addressStreet": "Maya"}, {"id": 986, "stationName": "Szczecin, ul. Andrzejewskiego", "gegrLat": "53.380975", "gegrLon": "14.663347", "city": {"id": 917, "name": "Szczecin", "commune": {"communeName": "Szczecin", "districtName": "Szczecin", "provinceName": "ZACHODNIOPOMORSKIE"}}, "addressStreet": "ul. Andrzejewskiego 23"}, {"id": 987, "stationName": "Szczecin, ul. Pi\u0142sudskiego", "gegrLat": "53.432169", "gegrLon": "14.553900", "city": {"id": 917, "name": "Szczecin", "commune": {"communeName": "Szczecin", "districtName": "Szczecin", "provinceName": "ZACHODNIOPOMORSKIE"}}, "addressStreet": "ul. Pi\u0142sudskiego 1"}, {"id": 16265, "stationName": "Ustka, ul. Rybacka", "gegrLat": "54.582515", "gegrLon": "16.873625", "city": {"id": 991, "name": "Ustka", "commune": {"communeName": "Ustka", "districtName": "s\u0142upski", "provinceName": "POMORSKIE"}}, "addressStreet": "ul. Rybacka"}, {"id": 805, "stationName": "D\u0105browa G\u00f3rnicza, ul. Tysi\u0105clecia", "gegrLat": "50.329111", "gegrLon": "19.231222", "city": {"id": 157, "name": "D\u0105browa G\u00f3rnicza", "commune": {"communeName": "D\u0105browa G\u00f3rnicza", "districtName": "D\u0105browa G\u00f3rnicza", "provinceName": "\u015aL\u0104SKIE"}}, "addressStreet": "ul. Tysi\u0105clecia 25 a"}, {"id": 809, "stationName": "Gliwice, ul. Mewy", "gegrLat": "50.279481", "gegrLon": "18.655736", "city": {"id": 221, "name": "Gliwice", "commune": {"communeName": "Gliwice", "districtName": "Gliwice", "provinceName": "\u015aL\u0104SKIE"}}, "addressStreet": "ul. Mewy 34"}, {"id": 813, "stationName": "Katowice, ul. Plebiscytowa/A4", "gegrLat": "50.246795", "gegrLon": "19.019469", "city": {"id": 350, "name": "Katowice", "commune": {"communeName": "Katowice", "districtName": "Katowice", "provinceName": "\u015aL\u0104SKIE"}}, "addressStreet": "Al. G\u00f3rno\u015bl\u0105ska"}, {"id": 814, "stationName": "Katowice, ul. Kossutha", "gegrLat": "50.264611", "gegrLon": "18.975028", "city": {"id": 350, "name": "Katowice", "commune": {"communeName": "Katowice", "districtName": "Katowice", "provinceName": "\u015aL\u0104SKIE"}}, "addressStreet": "ul. Kossutha 6"}, {"id": 837, "stationName": "Sosnowiec, ul. Lubelska", "gegrLat": "50.285956", "gegrLon": "19.184399", "city": {"id": 862, "name": "Sosnowiec", "commune": {"communeName": "Sosnowiec", "districtName": "Sosnowiec", "provinceName": "\u015aL\u0104SKIE"}}, "addressStreet": "ul. Lubelska 51"}, {"id": 841, "stationName": "Tychy, ul. To\u0142stoja", "gegrLat": "50.099903", "gegrLon": "18.990236", "city": {"id": 988, "name": "Tychy", "commune": {"communeName": "Tychy", "districtName": "Tychy", "provinceName": "\u015aL\u0104SKIE"}}, "addressStreet": "ul. To\u0142stoja 1"}, {"id": 848, "stationName": "Zabrze, ul. M. Curie-Sk\u0142odowskiej", "gegrLat": "50.3165", "gegrLon": "18.772375", "city": {"id": 1073, "name": "Zabrze", "commune": {"communeName": "Zabrze", "districtName": "Zabrze", "provinceName": "\u015aL\u0104SKIE"}}, "addressStreet": "ul. M. Sk\u0142odowskiej-Curie 34"}, {"id": 834, "stationName": "Rybnik, ul. Borki", "gegrLat": "50.111181", "gegrLon": "18.516139", "city": {"id": 804, "name": "Rybnik", "commune": {"communeName": "Rybnik", "districtName": "Rybnik", "provinceName": "\u015aL\u0104SKIE"}}, "addressStreet": "ul. Borki 37 d"}, {"id": 10554, "stationName": "\u017bory, Os. Gen. W\u0142adys\u0142awa Sikorskiego", "gegrLat": "50.029416", "gegrLon": "18.689527", "city": {"id": 1123, "name": "\u017bory", "commune": {"communeName": "\u017bory", "districtName": "\u017bory", "provinceName": "\u015aL\u0104SKIE"}}, "addressStreet": "ul. Sikorskiego 52"}, {"id": 11855, "stationName": "Jastrz\u0119bie-Zdr\u00f3j, Al.J.Pi\u0142sudskiego/Harcerska", "gegrLat": "49.952544", "gegrLon": "18.607953", "city": {"id": 312, "name": "Jastrz\u0119bie-Zdr\u00f3j", "commune": {"communeName": "Jastrz\u0119bie-Zdr\u00f3j", "districtName": "Jastrz\u0119bie-Zdr\u00f3j", "provinceName": "\u015aL\u0104SKIE"}}, "addressStreet": "Aleja J\u00f3zefa Pi\u0142sudskiego/Harcerska 3"}, {"id": 789, "stationName": "Bielsko-Bia\u0142a, ul. Kossak-Szczuckiej", "gegrLat": "49.813464", "gegrLon": "19.027318", "city": {"id": 41, "name": "Bielsko-Bia\u0142a", "commune": {"communeName": "Bielsko-Bia\u0142a", "districtName": "Bielsko-Bia\u0142a", "provinceName": "\u015aL\u0104SKIE"}}, "addressStreet": "ul. Kossak-Szczuckiej 19"}, {"id": 10158, "stationName": "Bielsko-Bia\u0142a, ul.Partyzant\u00f3w", "gegrLat": "49.802075", "gegrLon": "19.048610", "city": {"id": 41, "name": "Bielsko-Bia\u0142a", "commune": {"communeName": "Bielsko-Bia\u0142a", "districtName": "Bielsko-Bia\u0142a", "provinceName": "\u015aL\u0104SKIE"}}, "addressStreet": "ul. Partyzant\u00f3w"}, {"id": 798, "stationName": "Cz\u0119stochowa, ul. AK/Jana Paw\u0142a II", "gegrLat": "50.817217", "gegrLon": "19.118997", "city": {"id": 146, "name": "Cz\u0119stochowa", "commune": {"communeName": "Cz\u0119stochowa", "districtName": "Cz\u0119stochowa", "provinceName": "\u015aL\u0104SKIE"}}, "addressStreet": "ul. Armii Krajowej 2"}, {"id": 800, "stationName": "Cz\u0119stochowa, ul. Baczy\u0144skiego", "gegrLat": "50.836389", "gegrLon": "19.130111", "city": {"id": 146, "name": "Cz\u0119stochowa", "commune": {"communeName": "Cz\u0119stochowa", "districtName": "Cz\u0119stochowa", "provinceName": "\u015aL\u0104SKIE"}}, "addressStreet": "ul. Baczy\u0144skiego 2"}, {"id": 842, "stationName": "Ustro\u0144, ul. Sanatoryjna", "gegrLat": "49.719731", "gegrLon": "18.826722", "city": {"id": 993, "name": "Ustro\u0144", "commune": {"communeName": "Ustro\u0144", "districtName": "cieszy\u0144ski", "provinceName": "\u015aL\u0104SKIE"}}, "addressStreet": "ul. Sanatoryjna 7"}, {"id": 845, "stationName": "Wodzis\u0142aw \u015al\u0105ski, ul. Ga\u0142czy\u0144skiego", "gegrLat": "50.007629", "gegrLon": "18.455548", "city": {"id": 1050, "name": "Wodzis\u0142aw \u015al\u0105ski", "commune": {"communeName": "Wodzis\u0142aw \u015al\u0105ski", "districtName": "wodzis\u0142awski", "provinceName": "\u015aL\u0104SKIE"}}, "addressStreet": "ul. Ga\u0142czy\u0144skiego 1"}, {"id": 853, "stationName": "Z\u0142oty Potok, Le\u015bnicz\u00f3wka", "gegrLat": "50.710889", "gegrLon": "19.458797", "city": {"id": 1111, "name": "Z\u0142oty Potok", "commune": {"communeName": "Jan\u00f3w", "districtName": "cz\u0119stochowski", "provinceName": "\u015aL\u0104SKIE"}}, "addressStreet": "Le\u015bnicz\u00f3wka Kamienna G\u00f3ra"}, {"id": 856, "stationName": "\u017bywiec, ul. Kopernika", "gegrLat": "49.671602", "gegrLon": "19.234446", "city": {"id": 1131, "name": "\u017bywiec", "commune": {"communeName": "\u017bywiec", "districtName": "\u017cywiecki", "provinceName": "\u015aL\u0104SKIE"}}, "addressStreet": "ul. Kopernika 83 a"}, {"id": 9000, "stationName": "Czerwionka-Leszczyny, ul. Kopalniana", "gegrLat": "50.16385", "gegrLon": "18.659977", "city": {"id": 145, "name": "Czerwionka-Leszczyny", "commune": {"communeName": "Czerwionka-Leszczyny", "districtName": "rybnicki", "provinceName": "\u015aL\u0104SKIE"}}, "addressStreet": "ul. Kopalniana"}, {"id": 11278, "stationName": "Lubliniec, ul. ks. Szyma\u0142y", "gegrLat": "50.675693", "gegrLon": "18.682065", "city": {"id": 490, "name": "Lubliniec", "commune": {"communeName": "Lubliniec", "districtName": "lubliniecki", "provinceName": "\u015aL\u0104SKIE"}}, "addressStreet": "ul. Ks. P\u0142k. Jana Szyma\u0142y 3"}, {"id": 11455, "stationName": "Zawiercie, ul. K.I.Ga\u0142czy\u0144skiego", "gegrLat": "50.493045", "gegrLon": "19.439012", "city": {"id": 1086, "name": "Zawiercie", "commune": {"communeName": "Zawiercie", "districtName": "zawiercia\u0144ski", "provinceName": "\u015aL\u0104SKIE"}}, "addressStreet": "ul. K.I.Ga\u0142czy\u0144skiego 3"}, {"id": 11457, "stationName": "Gocza\u0142kowice Zdr\u00f3j, ul. Parkowa", "gegrLat": "49.937850", "gegrLon": "18.975594", "city": {"id": 2280, "name": "Gocza\u0142kowice-Zdr\u00f3j", "commune": {"communeName": "Gocza\u0142kowice-Zdr\u00f3j", "districtName": "pszczy\u0144ski", "provinceName": "\u015aL\u0104SKIE"}}, "addressStreet": "ul. Parkowa"}, {"id": 11794, "stationName": "Racib\u00f3rz, Wojska Polskiego", "gegrLat": "50.091142", "gegrLon": "18.216261", "city": {"id": 768, "name": "Racib\u00f3rz", "commune": {"communeName": "Racib\u00f3rz", "districtName": "raciborski", "provinceName": "\u015aL\u0104SKIE"}}, "addressStreet": "ul. Wojska Polskiego 8"}, {"id": 16406, "stationName": "Cieszyn, ul. Chopina", "gegrLat": "49.755989", "gegrLon": "18.634075", "city": {"id": 124, "name": "Cieszyn", "commune": {"communeName": "Cieszyn", "districtName": "cieszy\u0144ski", "provinceName": "\u015aL\u0104SKIE"}}, "addressStreet": "ul. Chopina 37"}, {"id": 11195, "stationName": "Kielce, ul. Targowa", "gegrLat": "50.878998", "gegrLon": "20.633692", "city": {"id": 360, "name": "Kielce", "commune": {"communeName": "Kielce", "districtName": "Kielce", "provinceName": "\u015aWI\u0118TOKRZYSKIE"}}, "addressStreet": "ul. Targowa 3"}, {"id": 16196, "stationName": "Kielce, ul. Warszawska 108", "gegrLat": "50.886014", "gegrLon": "20.642858", "city": {"id": 360, "name": "Kielce", "commune": {"communeName": "Kielce", "districtName": "Kielce", "provinceName": "\u015aWI\u0118TOKRZYSKIE"}}, "addressStreet": "ul. Warszawska 108"}, {"id": 16497, "stationName": "Kielce, ul. Jurajska", "gegrLat": "50.887606", "gegrLon": "20.579965", "city": {"id": 360, "name": "Kielce", "commune": {"communeName": "Kielce", "districtName": "Kielce", "provinceName": "\u015aWI\u0118TOKRZYSKIE"}}, "addressStreet": "ul. Jurajska 7"}, {"id": 769, "stationName": "Nowiny, ul. Parkowa", "gegrLat": "50.823108", "gegrLon": "20.533506", "city": {"id": 616, "name": "Nowiny", "commune": {"communeName": "Nowiny", "districtName": "kielecki", "provinceName": "\u015aWI\u0118TOKRZYSKIE"}}, "addressStreet": "ul. Parkowa"}, {"id": 778, "stationName": "Po\u0142aniec, ul. Ruszcza\u0144ska", "gegrLat": "50.429014", "gegrLon": "21.277367", "city": {"id": 723, "name": "Po\u0142aniec", "commune": {"communeName": "Po\u0142aniec", "districtName": "staszowski", "provinceName": "\u015aWI\u0118TOKRZYSKIE"}}, "addressStreet": "ul. Ruszcza\u0144ska 23"}, {"id": 785, "stationName": "Starachowice, ul. Z\u0142ota", "gegrLat": "51.050611", "gegrLon": "21.084175", "city": {"id": 872, "name": "Starachowice", "commune": {"communeName": "Starachowice", "districtName": "starachowicki", "provinceName": "\u015aWI\u0118TOKRZYSKIE"}}, "addressStreet": "ul. Z\u0142ota"}, {"id": 10794, "stationName": "Ma\u0142ogoszcz, ul. S\u0142oneczna", "gegrLat": "50.809610", "gegrLon": "20.266032", "city": {"id": 531, "name": "Ma\u0142ogoszcz", "commune": {"communeName": "Ma\u0142ogoszcz", "districtName": "j\u0119drzejowski", "provinceName": "\u015aWI\u0118TOKRZYSKIE"}}, "addressStreet": "ul. S\u0142oneczna 18"}, {"id": 11754, "stationName": "Go\u0142uch\u00f3w, Uj\u0119cie Wody", "gegrLat": "50.621482", "gegrLon": "20.614057", "city": {"id": 2644, "name": "Go\u0142uch\u00f3w", "commune": {"communeName": "Kije", "districtName": "pi\u0144czowski", "provinceName": "\u015aWI\u0118TOKRZYSKIE"}}, "addressStreet": "Uj\u0119cie Wody"}, {"id": 12016, "stationName": "W\u0142oszczowa, ul. Kili\u0144skiego", "gegrLat": "50.850321", "gegrLon": "19.971990", "city": {"id": 2690, "name": "W\u0142oszczowa", "commune": {"communeName": "W\u0142oszczowa", "districtName": "w\u0142oszczowski", "provinceName": "\u015aWI\u0118TOKRZYSKIE"}}, "addressStreet": "ul. Kili\u0144skiego"}, {"id": 12138, "stationName": "\u0141ag\u00f3w, ul. Zap\u0142otnia", "gegrLat": "50.778479", "gegrLon": "21.081224", "city": {"id": 2685, "name": "\u0141ag\u00f3w", "commune": {"communeName": "\u0141ag\u00f3w", "districtName": "kielecki", "provinceName": "\u015aWI\u0118TOKRZYSKIE"}}, "addressStreet": "ul. Zap\u0142otnia 2"}, {"id": 877, "stationName": " Olsztyn, ul. Puszkina", "gegrLat": "53.789233", "gegrLon": "20.486075", "city": {"id": 639, "name": "Olsztyn", "commune": {"communeName": "Olsztyn", "districtName": "Olsztyn", "provinceName": "WARMI\u0143SKO-MAZURSKIE"}}, "addressStreet": "ul. Puszkina 16"}, {"id": 861, "stationName": "Elbl\u0105g, ul. Ba\u017cy\u0144skiego", "gegrLat": "54.167847", "gegrLon": "19.410942", "city": {"id": 202, "name": "Elbl\u0105g", "commune": {"communeName": "Elbl\u0105g", "districtName": "Elbl\u0105g", "provinceName": "WARMI\u0143SKO-MAZURSKIE"}}, "addressStreet": "ul. Ba\u017cy\u0144skiego 6"}, {"id": 11554, "stationName": "\u0141ask, ul. Narutowicza", "gegrLat": "51.589208", "gegrLon": "19.131433", "city": {"id": 504, "name": "\u0141ask", "commune": {"communeName": "\u0141ask", "districtName": "\u0142aski", "provinceName": "\u0141\u00d3DZKIE"}}, "addressStreet": "ul. Narutowicza 28"}, {"id": 11616, "stationName": "Kutno, ul. 1 Maja", "gegrLat": "52.231908", "gegrLon": "19.353689", "city": {"id": 445, "name": "Kutno", "commune": {"communeName": "Kutno", "districtName": "kutnowski", "provinceName": "\u0141\u00d3DZKIE"}}, "addressStreet": "ul. 1 Maja 7"}, {"id": 400, "stationName": "Krak\u00f3w, Aleja Krasi\u0144skiego", "gegrLat": "50.057678", "gegrLon": "19.926189", "city": {"id": 415, "name": "Krak\u00f3w", "commune": {"communeName": "Krak\u00f3w", "districtName": "Krak\u00f3w", "provinceName": "MA\u0141OPOLSKIE"}}, "addressStreet": "al. Krasi\u0144skiego"}, {"id": 401, "stationName": "Krak\u00f3w, ul. Bujaka", "gegrLat": "50.010575", "gegrLon": "19.949189", "city": {"id": 415, "name": "Krak\u00f3w", "commune": {"communeName": "Krak\u00f3w", "districtName": "Krak\u00f3w", "provinceName": "MA\u0141OPOLSKIE"}}, "addressStreet": "ul. Bujaka"}, {"id": 402, "stationName": "Krak\u00f3w, ul. Bulwarowa", "gegrLat": "50.069308", "gegrLon": "20.053492", "city": {"id": 415, "name": "Krak\u00f3w", "commune": {"communeName": "Krak\u00f3w", "districtName": "Krak\u00f3w", "provinceName": "MA\u0141OPOLSKIE"}}, "addressStreet": "ul. Bulwarowa"}, {"id": 10121, "stationName": "Krak\u00f3w, ul. Dietla", "gegrLat": "50.057447", "gegrLon": "19.946008", "city": {"id": 415, "name": "Krak\u00f3w", "commune": {"communeName": "Krak\u00f3w", "districtName": "Krak\u00f3w", "provinceName": "MA\u0141OPOLSKIE"}}, "addressStreet": "ul. Dietla"}, {"id": 10123, "stationName": "Krak\u00f3w, ul. Z\u0142oty R\u00f3g", "gegrLat": "50.081197", "gegrLon": "19.895358", "city": {"id": 415, "name": "Krak\u00f3w", "commune": {"communeName": "Krak\u00f3w", "districtName": "Krak\u00f3w", "provinceName": "MA\u0141OPOLSKIE"}}, "addressStreet": "Z\u0142oty R\u00f3g"}, {"id": 10139, "stationName": "Krak\u00f3w, os. Piast\u00f3w", "gegrLat": "50.098508", "gegrLon": "20.018269", "city": {"id": 415, "name": "Krak\u00f3w", "commune": {"communeName": "Krak\u00f3w", "districtName": "Krak\u00f3w", "provinceName": "MA\u0141OPOLSKIE"}}, "addressStreet": "os. Piast\u00f3w"}, {"id": 10447, "stationName": "Krak\u00f3w, os. Wad\u00f3w", "gegrLat": "50.100569", "gegrLon": "20.122561", "city": {"id": 415, "name": "Krak\u00f3w", "commune": {"communeName": "Krak\u00f3w", "districtName": "Krak\u00f3w", "provinceName": "MA\u0141OPOLSKIE"}}, "addressStreet": "Wad\u00f3w"}, {"id": 11303, "stationName": "Krak\u00f3w, os. Swoszowice", "gegrLat": "49.991442", "gegrLon": "19.936792", "city": {"id": 415, "name": "Krak\u00f3w", "commune": {"communeName": "Krak\u00f3w", "districtName": "Krak\u00f3w", "provinceName": "MA\u0141OPOLSKIE"}}, "addressStreet": "Lusi\u0144ska"}, {"id": 444, "stationName": "Tarn\u00f3w, ul. Bitwy pod Studziankami", "gegrLat": "50.020169", "gegrLon": "21.004167", "city": {"id": 958, "name": "Tarn\u00f3w", "commune": {"communeName": "Tarn\u00f3w", "districtName": "Tarn\u00f3w", "provinceName": "MA\u0141OPOLSKIE"}}, "addressStreet": "ul. Bitwy pod Studziankami"}, {"id": 10120, "stationName": "Tarn\u00f3w, ul. Ks. Romana Sitko", "gegrLat": "50.018253", "gegrLon": "20.992578", "city": {"id": 958, "name": "Tarn\u00f3w", "commune": {"communeName": "Tarn\u00f3w", "districtName": "Tarn\u00f3w", "provinceName": "MA\u0141OPOLSKIE"}}, "addressStreet": "ul. Ks. Romana Sitko"}, {"id": 426, "stationName": "Nowy S\u0105cz, ul. Nadbrze\u017cna", "gegrLat": "49.619281", "gegrLon": "20.714403", "city": {"id": 623, "name": "Nowy S\u0105cz", "commune": {"communeName": "Nowy S\u0105cz", "districtName": "Nowy S\u0105cz", "provinceName": "MA\u0141OPOLSKIE"}}, "addressStreet": "ul. Nadbrze\u017cna"}, {"id": 9173, "stationName": "D\u0119bica, ul.Grottgera", "gegrLat": "50.054786", "gegrLon": "21.416256", "city": {"id": 164, "name": "D\u0119bica", "commune": {"communeName": "D\u0119bica", "districtName": "d\u0119bicki", "provinceName": "PODKARPACKIE"}}, "addressStreet": "Grottgera 3"}, {"id": 9175, "stationName": "Krempna, O\u015brodek edukacyjno-muzealny MPN", "gegrLat": "49.511297", "gegrLon": "21.498606", "city": {"id": 421, "name": "Krempna", "commune": {"communeName": "Krempna", "districtName": "jasielski", "provinceName": "PODKARPACKIE"}}, "addressStreet": "59"}, {"id": 10414, "stationName": "Ryman\u00f3w Zdr\u00f3j, ul. Parkowa", "gegrLat": "49.546539", "gegrLon": "21.851006", "city": {"id": 805, "name": "Ryman\u00f3w-Zdr\u00f3j", "commune": {"communeName": "Ryman\u00f3w", "districtName": "kro\u015bnie\u0144ski", "provinceName": "PODKARPACKIE"}}, "addressStreet": "Parkowa 5"}, {"id": 10438, "stationName": "Mielec, ul. Biernackiego", "gegrLat": "50.299128", "gegrLon": "21.440942", "city": {"id": 548, "name": "Mielec", "commune": {"communeName": "Mielec", "districtName": "mielecki", "provinceName": "PODKARPACKIE"}}, "addressStreet": "Biernackiego"}, {"id": 16978, "stationName": "Jedlicze, ul. Tokarskich", "gegrLat": "49.714025", "gegrLon": "21.641508", "city": {"id": 316, "name": "Jedlicze", "commune": {"communeName": "Jedlicze", "districtName": "kro\u015bnie\u0144ski", "provinceName": "PODKARPACKIE"}}, "addressStreet": "Tokarskich"}, {"id": 605, "stationName": "Bia\u0142ystok, ul. Waszyngtona", "gegrLat": "53.126689", "gegrLon": "23.155869", "city": {"id": 35, "name": "Bia\u0142ystok", "commune": {"communeName": "Bia\u0142ystok", "districtName": "Bia\u0142ystok", "provinceName": "PODLASKIE"}}, "addressStreet": "ul. Waszyngtona 16"}, {"id": 609, "stationName": "Bia\u0142ystok, ul. Warszawska", "gegrLat": "53.129306", "gegrLon": "23.181744", "city": {"id": 35, "name": "Bia\u0142ystok", "commune": {"communeName": "Bia\u0142ystok", "districtName": "Bia\u0142ystok", "provinceName": "PODLASKIE"}}, "addressStreet": "ul. Warszawska 75 A"}, {"id": 11174, "stationName": "Bia\u0142ystok, ul. 42 Pu\u0142ku Piechoty", "gegrLat": "53.144122", "gegrLon": "23.216322", "city": {"id": 35, "name": "Bia\u0142ystok", "commune": {"communeName": "Bia\u0142ystok", "districtName": "Bia\u0142ystok", "provinceName": "PODLASKIE"}}, "addressStreet": "ul. 42 Pu\u0142ku Piechoty 117"}, {"id": 11814, "stationName": "Bia\u0142ystok, al.Pi\u0142sudskiego", "gegrLat": "53.135286", "gegrLon": "23.161325", "city": {"id": 35, "name": "Bia\u0142ystok", "commune": {"communeName": "Bia\u0142ystok", "districtName": "Bia\u0142ystok", "provinceName": "PODLASKIE"}}, "addressStreet": "Al. J\u00f3zefa Pi\u0142sudskiego 34"}, {"id": 612, "stationName": "Borsukowizna, Szk\u00f3\u0142ka Le\u015bna", "gegrLat": "53.215492", "gegrLon": "23.642153", "city": {"id": 63, "name": "Borsukowizna", "commune": {"communeName": "Krynki", "districtName": "sok\u00f3lski", "provinceName": "PODLASKIE"}}, "addressStreet": null}, {"id": 618, "stationName": "\u0141om\u017ca, ul. Sikorskiego", "gegrLat": "53.181394", "gegrLon": "22.054381", "city": {"id": 513, "name": "\u0141om\u017ca", "commune": {"communeName": "\u0141om\u017ca", "districtName": "\u0141om\u017ca", "provinceName": "PODLASKIE"}}, "addressStreet": "ul. Sikorskiego 48/94"}, {"id": 9994, "stationName": "Grajewo, ul. Wojska Polskiego", "gegrLat": "53.639793", "gegrLon": "22.470274", "city": {"id": 258, "name": "Grajewo", "commune": {"communeName": "Grajewo", "districtName": "grajewski", "provinceName": "PODLASKIE"}}, "addressStreet": "ul. Wojska Polskiego 74"}, {"id": 11154, "stationName": "Suwa\u0142ki, ul. Pu\u0142askiego 26", "gegrLat": "54.115897", "gegrLon": "22.938464", "city": {"id": 906, "name": "Suwa\u0142ki", "commune": {"communeName": "Suwa\u0142ki", "districtName": "Suwa\u0142ki", "provinceName": "PODLASKIE"}}, "addressStreet": "ul. Pu\u0142askiego 26"}, {"id": 11916, "stationName": "August\u00f3w, Uzdrowisko", "gegrLat": "53.852550", "gegrLon": "22.984686", "city": {"id": 8, "name": "August\u00f3w", "commune": {"communeName": "August\u00f3w", "districtName": "augustowski", "provinceName": "PODLASKIE"}}, "addressStreet": "Uzdrowisko"}, {"id": 731, "stationName": "Gda\u0144sk, ul. Wyzwolenia", "gegrLat": "54.400833", "gegrLon": "18.657497", "city": {"id": 218, "name": "Gda\u0144sk", "commune": {"communeName": "Gda\u0144sk", "districtName": "Gda\u0144sk", "provinceName": "POMORSKIE"}}, "addressStreet": "ul. Wyzwolenia"}, {"id": 732, "stationName": "Gdynia, ul. Por\u0119bskiego", "gegrLat": "54.560836", "gegrLon": "18.493331", "city": {"id": 219, "name": "Gdynia", "commune": {"communeName": "Gdynia", "districtName": "Gdynia", "provinceName": "POMORSKIE"}}, "addressStreet": "ul. Por\u0119bskiego"}, {"id": 736, "stationName": "Gda\u0144sk, ul. Leczkowa", "gegrLat": "54.380279", "gegrLon": "18.620274", "city": {"id": 218, "name": "Gda\u0144sk", "commune": {"communeName": "Gda\u0144sk", "districtName": "Gda\u0144sk", "provinceName": "POMORSKIE"}}, "addressStreet": "ul. Leczkowa"}, {"id": 16242, "stationName": "Sopot, ul. Bitwy Pod P\u0142owcami", "gegrLat": "54.434510", "gegrLon": "18.578840", "city": {"id": 861, "name": "Sopot", "commune": {"communeName": "Sopot", "districtName": "Sopot", "provinceName": "POMORSKIE"}}, "addressStreet": "ul. Bitwy pod P\u0142owcami"}, {"id": 725, "stationName": "S\u0142upsk, ul. Kniaziewicza", "gegrLat": "54.463611", "gegrLon": "17.046722", "city": {"id": 846, "name": "S\u0142upsk", "commune": {"communeName": "S\u0142upsk", "districtName": "S\u0142upsk", "provinceName": "POMORSKIE"}}, "addressStreet": "ul. Kniaziewicza 30"}, {"id": 740, "stationName": "Ko\u015bcierzyna, ul. Targowa", "gegrLat": "54.120694", "gegrLon": "17.975861", "city": {"id": 406, "name": "Ko\u015bcierzyna", "commune": {"communeName": "Ko\u015bcierzyna", "districtName": "ko\u015bcierski", "provinceName": "POMORSKIE"}}, "addressStreet": "ul. Targowa"}, {"id": 741, "stationName": "Malbork, ul. Mickiewicza", "gegrLat": "54.031247", "gegrLon": "19.032899", "city": {"id": 527, "name": "Malbork", "commune": {"communeName": "Malbork", "districtName": "malborski", "provinceName": "POMORSKIE"}}, "addressStreet": "ul. Mickiewicza"}, {"id": 742, "stationName": "L\u0119bork, ul. Malczewskiego", "gegrLat": "54.546167", "gegrLon": "17.746194", "city": {"id": 464, "name": "L\u0119bork", "commune": {"communeName": "L\u0119bork", "districtName": "l\u0119borski", "provinceName": "POMORSKIE"}}, "addressStreet": "ul. Malczewskiego"}, {"id": 743, "stationName": "Liniewko Ko\u015bcierskie", "gegrLat": "54.104111", "gegrLon": "18.182972", "city": {"id": 469, "name": "Liniewko Ko\u015bcierskie", "commune": {"communeName": "Nowa Karczma", "districtName": "ko\u015bcierski", "provinceName": "POMORSKIE"}}, "addressStreet": null}, {"id": 750, "stationName": "\u0141eba, IMGW", "gegrLat": "54.754139", "gegrLon": "17.534528", "city": {"id": 506, "name": "\u0141eba", "commune": {"communeName": "\u0141eba", "districtName": "l\u0119borski", "provinceName": "POMORSKIE"}}, "addressStreet": "ul. R\u0105bka 1a"}, {"id": 437, "stationName": "Skawina, os. Ogrody", "gegrLat": "49.971047", "gegrLon": "19.830422", "city": {"id": 834, "name": "Skawina", "commune": {"communeName": "Skawina", "districtName": "krakowski", "provinceName": "MA\u0141OPOLSKIE"}}, "addressStreet": "os. Ogrody"}, {"id": 443, "stationName": "Szymbark", "gegrLat": "49.633714", "gegrLon": "21.116833", "city": {"id": 930, "name": "Szymbark", "commune": {"communeName": "Gorlice", "districtName": "gorlicki", "provinceName": "MA\u0141OPOLSKIE"}}, "addressStreet": "Szymbark 430"}, {"id": 449, "stationName": "Trzebinia, os. Zwi\u0105zku Walki M\u0142odych", "gegrLat": "50.159406", "gegrLon": "19.477464", "city": {"id": 974, "name": "Trzebinia", "commune": {"communeName": "Trzebinia", "districtName": "chrzanowski", "provinceName": "MA\u0141OPOLSKIE"}}, "addressStreet": "os. Widokowe (dawne os. ZWM)"}, {"id": 455, "stationName": "Niepo\u0142omice, ul. 3 Maja", "gegrLat": "50.035117", "gegrLon": "20.212689", "city": {"id": 597, "name": "Niepo\u0142omice", "commune": {"communeName": "Niepo\u0142omice", "districtName": "wielicki", "provinceName": "MA\u0141OPOLSKIE"}}, "addressStreet": "ul. 3 Maja"}, {"id": 459, "stationName": "Zakopane, ul. Sienkiewicza", "gegrLat": "49.293564", "gegrLon": "19.960083", "city": {"id": 1076, "name": "Zakopane", "commune": {"communeName": "Zakopane", "districtName": "tatrza\u0144ski", "provinceName": "MA\u0141OPOLSKIE"}}, "addressStreet": "ul. Sienkiewicza"}, {"id": 9179, "stationName": "Szar\u00f3w, ul. Spokojna", "gegrLat": "50.007500", "gegrLon": "20.259167", "city": {"id": 913, "name": "Szar\u00f3w", "commune": {"communeName": "K\u0142aj", "districtName": "wielicki", "provinceName": "MA\u0141OPOLSKIE"}}, "addressStreet": "ul. Spokojna"}, {"id": 10119, "stationName": "Kasz\u00f3w", "gegrLat": "50.025028", "gegrLon": "19.726833", "city": {"id": 2042, "name": "Kasz\u00f3w", "commune": {"communeName": "Liszki", "districtName": "krakowski", "provinceName": "MA\u0141OPOLSKIE"}}, "addressStreet": "Bory"}, {"id": 10124, "stationName": "Sucha Beskidzka, ul. Nieszczy\u0144skiej", "gegrLat": "49.743131", "gegrLon": "19.600339", "city": {"id": 897, "name": "Sucha Beskidzka", "commune": {"communeName": "Sucha Beskidzka", "districtName": "suski", "provinceName": "MA\u0141OPOLSKIE"}}, "addressStreet": "ul. Nieszczy\u0144skiej"}, {"id": 10446, "stationName": "Rabka-Zdr\u00f3j, ul. Orkana", "gegrLat": "49.608647", "gegrLon": "19.966008", "city": {"id": 767, "name": "Rabka-Zdr\u00f3j", "commune": {"communeName": "Rabka-Zdr\u00f3j", "districtName": "nowotarski", "provinceName": "MA\u0141OPOLSKIE"}}, "addressStreet": "Orkana"}, {"id": 10814, "stationName": "O\u015bwi\u0119cim, ul. J. Bema", "gegrLat": "50.033083", "gegrLon": "19.245275", "city": {"id": 660, "name": "O\u015bwi\u0119cim", "commune": {"communeName": "O\u015bwi\u0119cim", "districtName": "o\u015bwi\u0119cimski", "provinceName": "MA\u0141OPOLSKIE"}}, "addressStreet": "J. Bema"}, {"id": 11301, "stationName": "Olkusz, ul. Cegielniana", "gegrLat": "50.284000", "gegrLon": "19.564044", "city": {"id": 638, "name": "Olkusz", "commune": {"communeName": "Olkusz", "districtName": "olkuski", "provinceName": "MA\u0141OPOLSKIE"}}, "addressStreet": " Cegielniana"}, {"id": 11434, "stationName": "Zabierz\u00f3w, ul. Wapienna", "gegrLat": "50.116028", "gegrLon": "19.800639", "city": {"id": 2300, "name": "Zabierz\u00f3w", "commune": {"communeName": "Zabierz\u00f3w", "districtName": "krakowski", "provinceName": "MA\u0141OPOLSKIE"}}, "addressStreet": "Wapienna"}, {"id": 16473, "stationName": "Wadowice, ul. Ba\u0142ysa", "gegrLat": "49.872364", "gegrLon": "19.497467", "city": {"id": 997, "name": "Wadowice", "commune": {"communeName": "Wadowice", "districtName": "wadowicki", "provinceName": "MA\u0141OPOLSKIE"}}, "addressStreet": "Ba\u0142ysa"}, {"id": 16753, "stationName": "My\u015blenice", "gegrLat": "49.831237", "gegrLon": "19.923591", "city": {"id": 583, "name": "My\u015blenice", "commune": {"communeName": "My\u015blenice", "districtName": "my\u015blenicki", "provinceName": "MA\u0141OPOLSKIE"}}, "addressStreet": "Solidarno\u015bci 6"}, {"id": 16894, "stationName": "Nowy Targ, al. Tysi\u0105clecia ", "gegrLat": "49.476675", "gegrLon": "20.034878", "city": {"id": 626, "name": "Nowy Targ", "commune": {"communeName": "Nowy Targ", "districtName": "nowotarski", "provinceName": "MA\u0141OPOLSKIE"}}, "addressStreet": "al. Tysi\u0105clecia"}, {"id": 17138, "stationName": "Muszyna, Lodowisko", "gegrLat": "49.350039", "gegrLon": "20.873839", "city": {"id": 579, "name": "Muszyna", "commune": {"communeName": "Muszyna", "districtName": "nowos\u0105decki", "provinceName": "MA\u0141OPOLSKIE"}}, "addressStreet": "Aleja Zdrojowa"}, {"id": 530, "stationName": "Warszawa, al. Niepodleg\u0142o\u015bci", "gegrLat": "52.219298", "gegrLon": "21.004724", "city": {"id": 1006, "name": "Warszawa", "commune": {"communeName": "Warszawa", "districtName": "Warszawa", "provinceName": "MAZOWIECKIE"}}, "addressStreet": "al. Niepodleg\u0142o\u015bci 227/233"}, {"id": 538, "stationName": "Warszawa, ul. To\u0142stoja", "gegrLat": "52.285073", "gegrLon": "20.933018", "city": {"id": 1006, "name": "Warszawa", "commune": {"communeName": "Warszawa", "districtName": "Warszawa", "provinceName": "MAZOWIECKIE"}}, "addressStreet": "ul. To\u0142stoja 2"}, {"id": 550, "stationName": "Warszawa, ul. Wokalna", "gegrLat": "52.160772", "gegrLon": "21.033819", "city": {"id": 1006, "name": "Warszawa", "commune": {"communeName": "Warszawa", "districtName": "Warszawa", "provinceName": "MAZOWIECKIE"}}, "addressStreet": "ul. Wokalna 1"}, {"id": 552, "stationName": "Warszawa, ul. Kondratowicza", "gegrLat": "52.290864", "gegrLon": "21.042458", "city": {"id": 1006, "name": "Warszawa", "commune": {"communeName": "Warszawa", "districtName": "Warszawa", "provinceName": "MAZOWIECKIE"}}, "addressStreet": "ul. Kondratowicza 8"}, {"id": 10955, "stationName": "Warszawa, ul. Chro\u015bcickiego", "gegrLat": "52.207742", "gegrLon": "20.906073", "city": {"id": 1006, "name": "Warszawa", "commune": {"communeName": "Warszawa", "districtName": "Warszawa", "provinceName": "MAZOWIECKIE"}}, "addressStreet": "ul. Chro\u015bcickiego 16/18"}, {"id": 10956, "stationName": "Warszawa, ul. Bajkowa", "gegrLat": "52.188474", "gegrLon": "21.176233", "city": {"id": 1006, "name": "Warszawa", "commune": {"communeName": "Warszawa", "districtName": "Warszawa", "provinceName": "MAZOWIECKIE"}}, "addressStreet": "ul. Bajkowa 17/21"}, {"id": 16533, "stationName": "Warszawa, IMiGW", "gegrLat": "52.281304", "gegrLon": "20.963383", "city": {"id": 1006, "name": "Warszawa", "commune": {"communeName": "Warszawa", "districtName": "Warszawa", "provinceName": "MAZOWIECKIE"}}, "addressStreet": "ul. Podle\u015bna 61"}, {"id": 497, "stationName": "P\u0142ock, ul. Kr\u00f3lowej Jadwigi", "gegrLat": "52.556279", "gegrLon": "19.687672", "city": {"id": 707, "name": "P\u0142ock", "commune": {"communeName": "P\u0142ock", "districtName": "P\u0142ock", "provinceName": "MAZOWIECKIE"}}, "addressStreet": "ul. Kr\u00f3lowej Jadwigi 4"}, {"id": 501, "stationName": "P\u0142ock, ul. Reja", "gegrLat": "52.550938", "gegrLon": "19.709791", "city": {"id": 707, "name": "P\u0142ock", "commune": {"communeName": "P\u0142ock", "districtName": "P\u0142ock", "provinceName": "MAZOWIECKIE"}}, "addressStreet": "ul. Miko\u0142aja Reja 28"}, {"id": 515, "stationName": "Radom, ul. Tochtermana", "gegrLat": "51.399084", "gegrLon": "21.147474", "city": {"id": 771, "name": "Radom", "commune": {"communeName": "Radom", "districtName": "Radom", "provinceName": "MAZOWIECKIE"}}, "addressStreet": "ul. Tochtermana 1"}, {"id": 460, "stationName": "Belsk Du\u017cy, IGF PAN", "gegrLat": "51.835242", "gegrLon": "20.791912", "city": {"id": 19, "name": "Belsk Du\u017cy", "commune": {"communeName": "Gr\u00f3jec", "districtName": "gr\u00f3jecki", "provinceName": "MAZOWIECKIE"}}, "addressStreet": "Osiedle PAN 1"}, {"id": 466, "stationName": "Granica, KPN", "gegrLat": "52.285858", "gegrLon": "20.454653", "city": {"id": 259, "name": "Granica", "commune": {"communeName": "Kampinos", "districtName": "warszawski zachodni", "provinceName": "MAZOWIECKIE"}}, "addressStreet": "Kampinoski Park Narodowy"}, {"id": 471, "stationName": "Legionowo, ul. Zegrzy\u0144ska", "gegrLat": "52.407578", "gegrLon": "20.955928", "city": {"id": 452, "name": "Legionowo", "commune": {"communeName": "Legionowo", "districtName": "legionowski", "provinceName": "MAZOWIECKIE"}}, "addressStreet": "ul. Zegrzy\u0144ska 38"}, {"id": 485, "stationName": "Otwock, ul. Brzozowa", "gegrLat": "52.115725", "gegrLon": "21.237297", "city": {"id": 662, "name": "Otwock", "commune": {"communeName": "Otwock", "districtName": "otwocki", "provinceName": "MAZOWIECKIE"}}, "addressStreet": "ul. Brzozowa 2"}, {"id": 488, "stationName": "Piast\u00f3w, ul. Pu\u0142askiego", "gegrLat": "52.191728", "gegrLon": "20.837489", "city": {"id": 685, "name": "Piast\u00f3w", "commune": {"communeName": "Piast\u00f3w", "districtName": "pruszkowski", "provinceName": "MAZOWIECKIE"}}, "addressStreet": "ul. Pu\u0142askiego 6/8"}, {"id": 517, "stationName": "Siedlce, ul. Konarskiego", "gegrLat": "52.172145", "gegrLon": "22.282001", "city": {"id": 823, "name": "Siedlce", "commune": {"communeName": "Siedlce", "districtName": "Siedlce", "provinceName": "MAZOWIECKIE"}}, "addressStreet": "ul. Konarskiego 11"}, {"id": 9798, "stationName": "Nak\u0142o nad Noteci\u0105, ul. \u015aw. Wawrzy\u0144ca", "gegrLat": "53.136681", "gegrLon": "17.591539", "city": {"id": 587, "name": "Nak\u0142o nad Noteci\u0105", "commune": {"communeName": "Nak\u0142o nad Noteci\u0105", "districtName": "nakielski", "provinceName": "KUJAWSKO-POMORSKIE"}}, "addressStreet": "ul. \u015awi\u0119tego Wawrzy\u0144ca"}, {"id": 12038, "stationName": "\u015awiecie, al. Jana Paw\u0142a II", "gegrLat": "53.407580", "gegrLon": "18.428751", "city": {"id": 940, "name": "\u015awiecie", "commune": {"communeName": "\u015awiecie", "districtName": "\u015bwiecki", "provinceName": "KUJAWSKO-POMORSKIE"}}, "addressStreet": "al. Jana Paw\u0142a II 8"}, {"id": 236, "stationName": "Bia\u0142a Podlaska, ul. Orzechowa", "gegrLat": "52.029194", "gegrLon": "23.149389", "city": {"id": 26, "name": "Bia\u0142a Podlaska", "commune": {"communeName": "Bia\u0142a Podlaska", "districtName": "Bia\u0142a Podlaska", "provinceName": "LUBELSKIE"}}, "addressStreet": "ul. Orzechowa"}, {"id": 248, "stationName": "Jarczew, IMGW", "gegrLat": "51.814367", "gegrLon": "21.972375", "city": {"id": 301, "name": "Jarczew", "commune": {"communeName": "Wola Mys\u0142owska", "districtName": "\u0142ukowski", "provinceName": "LUBELSKIE"}}, "addressStreet": null}, {"id": 275, "stationName": "Radzy\u0144 Podlaski, ul. Sitkowskiego", "gegrLat": "51.78", "gegrLon": "22.625944", "city": {"id": 778, "name": "Radzy\u0144 Podlaski", "commune": {"communeName": "Radzy\u0144 Podlaski", "districtName": "radzy\u0144ski", "provinceName": "LUBELSKIE"}}, "addressStreet": "ul. Sitkowskiego 1b"}, {"id": 282, "stationName": "Wilczopole", "gegrLat": "51.163542", "gegrLon": "22.598608", "city": {"id": 1035, "name": "Wilczopole", "commune": {"communeName": "G\u0142usk", "districtName": "lubelski", "provinceName": "LUBELSKIE"}}, "addressStreet": null}, {"id": 285, "stationName": "Zamo\u015b\u0107, ul. Hrubieszowska", "gegrLat": "50.716628", "gegrLon": "23.290247", "city": {"id": 1081, "name": "Zamo\u015b\u0107", "commune": {"communeName": "Zamo\u015b\u0107", "districtName": "Zamo\u015b\u0107", "provinceName": "LUBELSKIE"}}, "addressStreet": "ul. Hrubieszowska 69A"}, {"id": 10874, "stationName": "Florianka, RPN", "gegrLat": "50.551894", "gegrLon": "22.982861", "city": {"id": 2201, "name": "Florianka", "commune": {"communeName": "J\u00f3zef\u00f3w", "districtName": "bi\u0142gorajski", "provinceName": "LUBELSKIE"}}, "addressStreet": null}, {"id": 11360, "stationName": "Che\u0142m, ul. Po\u0142aniecka", "gegrLat": "51.122147", "gegrLon": "23.473075", "city": {"id": 100, "name": "Che\u0142m", "commune": {"communeName": "Che\u0142m", "districtName": "Che\u0142m", "provinceName": "LUBELSKIE"}}, "addressStreet": "ul. Po\u0142aniecka"}, {"id": 12100, "stationName": "\u0141uk\u00f3w, Bulwar 100-lecia Odzyskania Niepodleg\u0142o\u015bci ", "gegrLat": "51.930734", "gegrLon": "22.372502", "city": {"id": 518, "name": "\u0141uk\u00f3w", "commune": {"communeName": "\u0141uk\u00f3w", "districtName": "\u0142ukowski", "provinceName": "LUBELSKIE"}}, "addressStreet": "Bulwar 100-lecia Odzyskania Niepodleg\u0142o\u015bci "}, {"id": 361, "stationName": "Gorz\u00f3w Wlkp. ul. Kosynier\u00f3w Gdy\u0144skich", "gegrLat": "52.738214", "gegrLon": "15.228667", "city": {"id": 246, "name": "Gorz\u00f3w Wielkopolski", "commune": {"communeName": "Gorz\u00f3w Wielkopolski", "districtName": "Gorz\u00f3w Wielkopolski", "provinceName": "LUBUSKIE"}}, "addressStreet": "ul. Kosynier\u00f3w Gdy\u0144skich"}, {"id": 387, "stationName": "Zielona G\u00f3ra ul. Kr\u00f3tka", "gegrLat": "51.939783", "gegrLon": "15.518861", "city": {"id": 1103, "name": "Zielona G\u00f3ra", "commune": {"communeName": "Zielona G\u00f3ra", "districtName": "Zielona G\u00f3ra", "provinceName": "LUBUSKIE"}}, "addressStreet": "ul. Kr\u00f3tka"}, {"id": 11294, "stationName": "Zielona G\u00f3ra,ul.Wyszy\u0144skiego", "gegrLat": "51.936249", "gegrLon": "15.481077", "city": {"id": 1103, "name": "Zielona G\u00f3ra", "commune": {"communeName": "Zielona G\u00f3ra", "districtName": "Zielona G\u00f3ra", "provinceName": "LUBUSKIE"}}, "addressStreet": "Wyszy\u0144skiego"}, {"id": 374, "stationName": "Smolary Bytnickie", "gegrLat": "52.172222", "gegrLon": "15.206667", "city": {"id": 848, "name": "Smolary Bytnickie", "commune": {"communeName": "Bytnica", "districtName": "kro\u015bnie\u0144ski", "provinceName": "LUBUSKIE"}}, "addressStreet": "Smolary Bytnickie 45A"}, {"id": 376, "stationName": "Sul\u0119cin ul. Dudka", "gegrLat": "52.437722", "gegrLon": "15.122444", "city": {"id": 903, "name": "Sul\u0119cin", "commune": {"communeName": "Sul\u0119cin", "districtName": "sul\u0119ci\u0144ski", "provinceName": "LUBUSKIE"}}, "addressStreet": "ul. Dudka"}, {"id": 379, "stationName": "Wschowa ul. Kazimierza Wielkiego", "gegrLat": "51.799722", "gegrLon": "16.317500", "city": {"id": 1066, "name": "Wschowa", "commune": {"communeName": "Wschowa", "districtName": "wschowski", "provinceName": "LUBUSKIE"}}, "addressStreet": "ul. Kazimierza Wielkiego"}, {"id": 382, "stationName": "\u017bary, ul. Szymanowskiego ", "gegrLat": "51.642656", "gegrLon": "15.127808", "city": {"id": 1119, "name": "\u017bary", "commune": {"communeName": "\u017bary", "districtName": "\u017carski", "provinceName": "LUBUSKIE"}}, "addressStreet": "ul. Szymanowskiego 8"}, {"id": 145, "stationName": "Toru\u0144, ul. Wa\u0142y gen. Sikorskiego", "gegrLat": "53.012475", "gegrLon": "18.605681", "city": {"id": 966, "name": "Toru\u0144", "commune": {"communeName": "Toru\u0144", "districtName": "Toru\u0144", "provinceName": "KUJAWSKO-POMORSKIE"}}, "addressStreet": "ul. Wa\u0142y Gen. Sikorskiego 12"}, {"id": 206, "stationName": "Toru\u0144, ul. Dziewulskiego", "gegrLat": "53.028647", "gegrLon": "18.666103", "city": {"id": 966, "name": "Toru\u0144", "commune": {"communeName": "Toru\u0144", "districtName": "Toru\u0144", "provinceName": "KUJAWSKO-POMORSKIE"}}, "addressStreet": "ul. Dziewulskiego 1"}, {"id": 208, "stationName": "Toru\u0144, ul. Przy Kaszowniku", "gegrLat": "53.017628", "gegrLon": "18.612808", "city": {"id": 966, "name": "Toru\u0144", "commune": {"communeName": "Toru\u0144", "districtName": "Toru\u0144", "provinceName": "KUJAWSKO-POMORSKIE"}}, "addressStreet": "ul. Przy Kaszowniku"}, {"id": 225, "stationName": "W\u0142oc\u0142awek, ul. Okrzei", "gegrLat": "52.658467", "gegrLon": "19.059314", "city": {"id": 1046, "name": "W\u0142oc\u0142awek", "commune": {"communeName": "W\u0142oc\u0142awek", "districtName": "W\u0142oc\u0142awek", "provinceName": "KUJAWSKO-POMORSKIE"}}, "addressStreet": "ul. Okrzei"}, {"id": 9791, "stationName": "W\u0142oc\u0142awek, ul. Kaliska", "gegrLat": "52.637394", "gegrLon": "19.044486", "city": {"id": 1046, "name": "W\u0142oc\u0142awek", "commune": {"communeName": "W\u0142oc\u0142awek", "districtName": "W\u0142oc\u0142awek", "provinceName": "KUJAWSKO-POMORSKIE"}}, "addressStreet": "Kaliska 108 A"}, {"id": 142, "stationName": "Grudzi\u0105dz, ul. Pi\u0142sudskiego", "gegrLat": "53.493550", "gegrLon": "18.762139", "city": {"id": 269, "name": "Grudzi\u0105dz", "commune": {"communeName": "Grudzi\u0105dz", "districtName": "Grudzi\u0105dz", "provinceName": "KUJAWSKO-POMORSKIE"}}, "addressStreet": "ul. Pi\u0142sudskiego 51"}, {"id": 143, "stationName": "Inowroc\u0142aw, ul. Solankowa", "gegrLat": "52.793122", "gegrLon": "18.241044", "city": {"id": 287, "name": "Inowroc\u0142aw", "commune": {"communeName": "Inowroc\u0142aw", "districtName": "inowroc\u0142awski", "provinceName": "KUJAWSKO-POMORSKIE"}}, "addressStreet": "ul. Solankowa"}, {"id": 164, "stationName": "Ciechocinek, ul. T\u0119\u017cniowa", "gegrLat": "52.888422", "gegrLon": "18.780908", "city": {"id": 122, "name": "Ciechocinek", "commune": {"communeName": "Ciechocinek", "districtName": "aleksandrowski", "provinceName": "KUJAWSKO-POMORSKIE"}}, "addressStreet": "ul. T\u0119\u017cniowa - Park T\u0119\u017cniowy"}, {"id": 190, "stationName": "Koniczynka, Pojezierze Che\u0142mi\u0144skie", "gegrLat": "53.080647", "gegrLon": "18.684258", "city": {"id": 391, "name": "Koniczynka", "commune": {"communeName": "\u0141ysomice", "districtName": "toru\u0144ski", "provinceName": "KUJAWSKO-POMORSKIE"}}, "addressStreet": null}, {"id": 232, "stationName": "Zielonka, Bory Tucholskie", "gegrLat": "53.662117", "gegrLon": "17.934017", "city": {"id": 1104, "name": "Zielonka", "commune": {"communeName": "Tuchola", "districtName": "tucholski", "provinceName": "KUJAWSKO-POMORSKIE"}}, "addressStreet": null}, {"id": 966, "stationName": "Koszalin, ul. Armii Krajowej", "gegrLat": "54.193986", "gegrLon": "16.172544", "city": {"id": 402, "name": "Koszalin", "commune": {"communeName": "Koszalin", "districtName": "Koszalin", "provinceName": "ZACHODNIOPOMORSKIE"}}, "addressStreet": "ul. Armii Krajowej"}, {"id": 11336, "stationName": "Koszalin, ul. Chopina", "gegrLat": "54.194114", "gegrLon": "16.211672", "city": {"id": 402, "name": "Koszalin", "commune": {"communeName": "Koszalin", "districtName": "Koszalin", "provinceName": "ZACHODNIOPOMORSKIE"}}, "addressStreet": "ul. Chopina 42"}, {"id": 961, "stationName": "Widuchowa", "gegrLat": "53.122325", "gegrLon": "14.382245", "city": {"id": 1025, "name": "Widuchowa", "commune": {"communeName": "Widuchowa", "districtName": "gryfi\u0144ski", "provinceName": "ZACHODNIOPOMORSKIE"}}, "addressStreet": "ul. Bulwary Rybackie 1"}, {"id": 983, "stationName": "Szczecinek, ul. Przemys\u0142owa", "gegrLat": "53.698902", "gegrLon": "16.704556", "city": {"id": 918, "name": "Szczecinek", "commune": {"communeName": "Szczecinek", "districtName": "szczecinecki", "provinceName": "ZACHODNIOPOMORSKIE"}}, "addressStreet": "ul. Przemys\u0142owa 5"}, {"id": 16975, "stationName": "\u015awinouj\u015bcie, ul. J. Matejki ", "gegrLat": "53.915675", "gegrLon": "14.246575", "city": {"id": 952, "name": "\u015awinouj\u015bcie", "commune": {"communeName": "\u015awinouj\u015bcie", "districtName": "\u015awinouj\u015bcie", "provinceName": "ZACHODNIOPOMORSKIE"}}, "addressStreet": "J. Matejki"}]